episode,timestep,action1,action2,action3,action4,action5,action6,action1_min,action2_min,action3_min,action4_min,action5_min,action6_min,action1_max,action2_max,action3_max,action4_max,action5_max,action6_max,pyb_action1,pyb_action2,pyb_action3,pyb_action4,pyb_action5,pyb_action6,pyb_action1_min,pyb_action2_min,pyb_action3_min,pyb_action4_min,pyb_action5_min,pyb_action6_min,pyb_action1_max,pyb_action2_max,pyb_action3_max,pyb_action4_max,pyb_action5_max,pyb_action6_max,joint1_pos,joint2_pos,joint3_pos,joint4_pos,joint5_pos,joint6_pos,desired_joint1_pos,desired_joint2_pos,desired_joint3_pos,desired_joint4_pos,desired_joint5_pos,desired_joint6_pos,joint1_vel,joint2_vel,joint3_vel,joint4_vel,joint5_vel,joint6_vel,joint1_tor,joint2_tor,joint3_tor,joint4_tor,joint5_tor,joint6_tor,joint1_min,joint2_min,joint3_min,joint4_min,joint5_min,joint6_min,joint1_max,joint2_max,joint3_max,joint4_max,joint5_max,joint6_max,reward,return,distance,orientation,goal_x,goal_y,goal_z,tip_x,tip_y,tip_z,goal_yaw,goal_pitch,goal_roll,tip_yaw,tip_pitch,tip_roll,done,term1,term2,vel_dist,vel_pos,collision,acc_dist,acc_pos
1.0,0.0,0.21359828114509583,0.233526811003685,-0.9304412007331848,0.9171128273010254,-0.4068358540534973,-0.1791735589504242,-1.0,-1.0,-1.0,-1.0,-1.0,-1.0,1.0,1.0,1.0,1.0,1.0,1.0,0.010679914616048336,0.011676340363919735,-0.04652206227183342,0.04585564136505127,-0.020341793075203896,-0.008958677761256695,-0.05,-0.05,-0.05,-0.05,-0.05,-0.05,0.05,0.05,0.05,0.05,0.05,0.05,0.8091480269927145,1.6719336393858926,-1.3516846782168956,2.572158985563776,-0.16905273410334673,1.6661357038866988,0.8483961030802417,1.7193496118195988,-1.531655581359167,2.7524391268252564,-0.2477926153760195,1.6314792411937165,0.10822197819481497,0.1247788748255424,-0.4751905109962618,0.4745915382592309,-0.20512487075862593,-0.09140162242077932,-1.0,0.7272218425552825,0.113245482186849,0.26369473081150346,-0.0945732145077864,-0.061726662728102344,-6.28318530718,0.820304748437,-6.28318530718,0.523598775598,-6.28318530718,1.1344640138,6.28318530718,5.46288055874,6.28318530718,5.75958653158,6.28318530718,5.14872129338,-0.6159841445962287,-0.6159841445962287,0.6159841445962287,0.04159105962412751,0.7,0.0,1.0,0.5678979932854031,-0.6014247402663033,0.9834528548826756,0.0,0.7071067811865475,0.0,-0.0054697207627889405,0.6868051010445579,0.030393262920634132,0.0,0.0,0.0,30.233570848857077,64.25339225984227,0.0,7256.057003725698,15420.814142362146
1.0,1.0,-0.9873090982437134,0.4257332980632782,-0.8419262170791626,-0.9500442147254944,-0.11877543479204178,0.7826642394065857,-1.0,-1.0,-1.0,-1.0,-1.0,-1.0,1.0,1.0,1.0,1.0,1.0,1.0,-0.04936545714735985,0.02128666453063488,-0.04209631308913231,-0.04750221222639084,-0.0059387716464698315,0.039133213460445404,-0.05,-0.05,-0.05,-0.05,-0.05,-0.05,0.05,0.05,0.05,0.05,0.05,0.05,0.7757141100149643,1.6828994271167461,-1.399282571874751,2.527145593429353,-0.17577031850455085,1.708543324678892,0.5623207412559152,1.778366962039067,-1.5621662436625572,2.3346479244318217,-0.1987465923356959,1.8618017711889259,-0.3851065843518347,0.13944854123263092,-0.42846930157694374,-0.5065720922006828,-0.06046630345741347,0.40331170134219446,-1.0,1.0,0.15057722987452185,0.3777516316421845,-0.1092299179195429,-0.14097663704202335,-6.28318530718,0.820304748437,-6.28318530718,0.523598775598,-6.28318530718,1.1344640138,6.28318530718,5.46288055874,6.28318530718,5.75958653158,6.28318530718,5.14872129338,-0.6190812598202037,-1.2350654044164324,0.6190812598202037,0.06190697313251955,0.7,0.0,1.0,0.5722906863357737,-0.6057635323097644,1.0015749246267125,0.0,0.7071067811865475,0.0,0.001471581819805452,0.6620712204086862,0.003263467515317655,0.0,0.0,0.0,-0.15485576119874667,0.9572490277337858,0.0,-7293.2223864133975,-15191.074375706035
1.0,2.0,0.28930723667144775,-0.6921535134315491,-0.3992728292942047,0.6637263894081116,-0.5668807625770569,0.3752630352973938,-1.0,-1.0,-1.0,-1.0,-1.0,-1.0,1.0,1.0,1.0,1.0,1.0,1.0,0.014465361833572388,-0.034607674926519394,-0.019963642582297325,0.03318632021546364,-0.028344038873910904,0.01876315288245678,-0.05,-0.05,-0.05,-0.05,-0.05,-0.05,0.05,0.05,0.05,0.05,0.05,0.05,0.7760078949913349,1.692436495287382,-1.421878700334738,2.55921365281938,-0.20782972985863915,1.7297662389519595,0.8480409191828262,1.5098610524841491,-1.4991007847862377,2.6930771945066714,-0.31749051287410535,1.8023590890911758,0.04700096046436335,0.06802660689451191,-0.20339302245903332,0.3522709499457661,-0.28857770245528785,0.1910338161558323,1.0,-1.0,-0.10734837687210176,-0.3746470532514495,0.1458500664667741,0.06520791443681603,-6.28318530718,0.820304748437,-6.28318530718,0.523598775598,-6.28318530718,1.1344640138,6.28318530718,5.46288055874,6.28318530718,5.75958653158,6.28318530718,5.14872129338,-0.6124995821385995,-1.8475649865550319,0.6124995821385995,0.09456031382348958,0.7,0.0,1.0,0.5793376313920066,-0.6002616488618374,1.016801304340316,0.0,0.7071067811865475,0.0,0.015451474190581925,0.6422686000387277,0.032784966514592964,0.0,0.0,0.0,0.3290838840802113,0.8828544547134751,0.0,116.14551486694991,-17.854697524874574
1.0,3.0,0.9126170873641968,0.8874081373214722,-0.3000339865684509,0.7525556683540344,0.5516021847724915,-0.087588369846344,-1.0,-1.0,-1.0,-1.0,-1.0,-1.0,1.0,1.0,1.0,1.0,1.0,1.0,0.04563085362315178,0.04437040910124779,-0.015001699328422546,0.03762778267264366,0.027580110356211662,-0.004379418678581715,-0.05,-0.05,-0.05,-0.05,-0.05,-0.05,0.05,0.05,0.05,0.05,0.05,0.05,0.7902922551928295,1.7110939710898665,-1.4388359846073353,2.6017743643022926,-0.17663420552078202,1.7248126990131407,1.0041621631070938,1.914288540793621,-1.4968871969768507,2.7473525661825984,-0.06992917807758084,1.707869145559051,0.15511991227549052,0.2042857153588531,-0.15258529660782433,0.38310216538865927,0.28079937368724295,-0.044588298563394406,1.0,1.0,0.057131322359228146,-0.4923727544209255,-0.14804455519192933,0.08877945366692283,-6.28318530718,0.820304748437,-6.28318530718,0.523598775598,-6.28318530718,1.1344640138,6.28318530718,5.46288055874,6.28318530718,5.75958653158,6.28318530718,5.14872129338,-0.6058423190468339,-2.453407305601866,0.6058423190468339,0.0866559754262535,0.7,0.0,1.0,0.5829741666177176,-0.59402268104912,1.022066360561802,0.0,0.7071067811865475,0.0,-0.003395781673852919,0.64794500174234,0.033129744974706485,0.0,0.0,0.0,0.3328631545882754,0.4468498764444529,0.0,0.9070249219353954,-104.64109878456533
1.0,4.0,0.06620276719331741,0.14189274609088898,-0.37517425417900085,0.6538074016571045,0.5722370743751526,0.7946557998657227,-1.0,-1.0,-1.0,-1.0,-1.0,-1.0,1.0,1.0,1.0,1.0,1.0,1.0,0.0033101383596658707,0.007094637490808964,-0.018758712336421013,0.032690372318029404,0.02861185371875763,0.03973279148340225,-0.05,-0.05,-0.05,-0.05,-0.05,-0.05,0.05,0.05,0.05,0.05,0.05,0.05,0.7969949040571465,1.7277036494356044,-1.4600724762053743,2.6387499783479327,-0.14427101341053078,1.7697542732125568,0.8068429469911589,1.7465671585439113,-1.5326295462894404,2.7652262258924396,-0.03357493692699387,1.923476656430152,0.02931826710597504,0.12825260831437674,-0.1912119063168066,0.33282179226464303,0.2913177792949714,0.40453258741472436,-1.0,-1.0,-0.06088182906094923,0.4149154733239334,0.11611000451793713,-0.12370548699559404,-6.28318530718,0.820304748437,-6.28318530718,0.523598775598,-6.28318530718,1.1344640138,6.28318530718,5.46288055874,6.28318530718,5.75958653158,6.28318530718,5.14872129338,-0.6085446861053417,-3.0619519917072076,0.6085446861053417,0.08007360304641276,0.7,0.0,1.0,0.5895906650124647,-0.5977661469606323,1.028496443330683,0.0,0.7071067811865475,0.0,-0.007254480090257085,0.6495389807336095,0.015247921321693825,0.0,0.0,0.0,-0.13511835292538965,0.4978392121282889,0.0,-112.31556180327962,12.237440564120643
1.0,5.0,0.8111023306846619,0.39433205127716064,0.06312642246484756,-0.11297806352376938,-0.22974497079849243,-0.06565643846988678,-1.0,-1.0,-1.0,-1.0,-1.0,-1.0,1.0,1.0,1.0,1.0,1.0,1.0,0.040555115789175034,0.019716603681445122,0.0031563211232423782,-0.0056489030830562115,-0.011487248353660107,-0.0032828219700604677,-0.05,-0.05,-0.05,-0.05,-0.05,-0.05,0.05,0.05,0.05,0.05,0.05,0.05,0.7924049499494666,1.7362062158877838,-1.456496136327289,2.6329140461838025,-0.15725378891340897,1.766039875011602,0.9997704830030216,1.82628666784283,-1.4442908705891624,2.6105054629326516,-0.2017072551788313,1.7533401633622545,-0.01834115106015382,0.11439913604600048,0.032119120363491294,-0.05896499322126336,-0.11679199109088695,-0.03344261075243318,1.0,1.0,0.061757251085511375,-0.4367133842170947,-0.1251022529108879,0.08563510270703417,-6.28318530718,0.820304748437,-6.28318530718,0.523598775598,-6.28318530718,1.1344640138,6.28318530718,5.46288055874,6.28318530718,5.75958653158,6.28318530718,5.14872129338,-0.6058546434961738,-3.667806635203381,0.6058546434961738,0.09236841271057038,0.7,0.0,1.0,0.5891766143989258,-0.5943631429437058,1.038864901387644,0.0,0.7071067811865475,0.0,0.0049908680946387386,0.6435737174032681,0.034121916679809135,0.0,0.0,0.0,0.1345021304583971,0.5460238015159072,0.0,64.70891601210882,11.5643014530284
1.0,6.0,-0.26681774854660034,-0.7222051620483398,0.28711074590682983,0.07354924827814102,0.9348925948143005,-0.8164905905723572,-1.0,-1.0,-1.0,-1.0,-1.0,-1.0,1.0,1.0,1.0,1.0,1.0,1.0,-0.013340887613594532,-0.03611025959253311,0.014355537481606007,0.00367746246047318,0.04674462974071503,-0.0408245287835598,-0.05,-0.05,-0.05,-0.05,-0.05,-0.05,0.05,0.05,0.05,0.05,0.05,0.05,0.7937987652261164,1.7515469664812215,-1.4402803904613792,2.6366160603141364,-0.10438082839878617,1.7198634418694962,0.725700511881494,1.5556549179251182,-1.384718448919259,2.6513013584861684,0.07646935979016617,1.561917231093803,-0.02080953206894893,0.12117973518667051,0.14593911367404117,0.038643677160204594,0.475925461750572,-0.4156479230939297,-1.0,-1.0,-0.0796265131440487,0.4142157703297497,0.10093874359825573,-0.04808193795314295,-6.28318530718,0.820304748437,-6.28318530718,0.523598775598,-6.28318530718,1.1344640138,6.28318530718,5.46288055874,6.28318530718,5.75958653158,6.28318530718,5.14872129338,-0.5939824359453041,-4.261789071148685,0.5939824359453041,0.07251216235016113,0.7,0.0,1.0,0.5898078067114629,-0.5826287772894619,1.0348786843783633,0.0,0.7071067811865475,0.0,-0.0064105224611893065,0.6676531507400313,0.04881898214269494,0.0,0.0,0.0,0.5936103775434853,0.620450777838147,0.0,110.18597930042118,17.86247431733753
1.0,7.0,0.736700177192688,0.8024996519088745,0.3296721577644348,0.5849370360374451,-0.3942764401435852,0.5801164507865906,-1.0,-1.0,-1.0,-1.0,-1.0,-1.0,1.0,1.0,1.0,1.0,1.0,1.0,0.03683501109480858,0.040124982595443726,0.0164836086332798,0.029246851801872253,-0.01971382275223732,0.02900582365691662,-0.05,-0.05,-0.05,-0.05,-0.05,-0.05,0.05,0.05,0.05,0.05,0.05,0.05,0.8022647002943796,1.7595200251676595,-1.4216184121573616,2.66969719209395,-0.12667538569369968,1.7500889651948435,0.9779738207001593,1.9521718794584402,-1.3578623472949802,2.7828503193234977,-0.20294994215997275,1.8648925601540793,0.10019447943259484,0.11118599794113178,0.16799649222773141,0.2977728946128557,-0.20072551253081322,0.3021147235769367,1.0,1.0,0.04702358020264356,-0.4764502850584141,-0.12056538348301506,0.06335158317840117,-6.28318530718,0.820304748437,-6.28318530718,0.523598775598,-6.28318530718,1.1344640138,6.28318530718,5.46288055874,6.28318530718,5.75958653158,6.28318530718,5.14872129338,-0.5940995772273124,-4.8558886483759975,0.5940995772273124,0.07230617704180918,0.7,0.0,1.0,0.5936117203295308,-0.5827403581701174,1.045271586786778,0.0,0.7071067811865475,0.0,-0.012458177476702255,0.663696884423356,0.04014267702128864,0.0,0.0,0.0,-0.0058570641004174195,0.553386459848541,0.0,-143.87218599453666,-16.09543631750544
1.0,8.0,-0.7538334131240845,-0.34820425510406494,-0.7124100923538208,0.6180022358894348,0.3193991184234619,-0.4556107521057129,-1.0,-1.0,-1.0,-1.0,-1.0,-1.0,1.0,1.0,1.0,1.0,1.0,1.0,-0.03769167140126228,-0.017410213127732277,-0.03562050685286522,0.03090011142194271,0.015969956293702126,-0.022780537605285645,-0.05,-0.05,-0.05,-0.05,-0.05,-0.05,0.05,0.05,0.05,0.05,0.05,0.05,0.8139237163354652,1.7747924394017724,-1.4619260457649605,2.704648020254371,-0.10861533822425919,1.7255177750428552,0.6138063432880682,1.672468959528998,-1.5997209464216877,2.8241977492036634,-0.046825604225189055,1.6361862771684152,0.0744998746518399,0.11432333473281824,-0.36285252417051483,0.3146032021385449,0.1626074086246843,-0.23508288914326328,-1.0,-1.0,-0.03236479220488268,0.404498977016801,0.12496678825587718,-0.060885152539866316,-6.28318530718,0.820304748437,-6.28318530718,0.523598775598,-6.28318530718,1.1344640138,6.28318530718,5.46288055874,6.28318530718,5.75958653158,6.28318530718,5.14872129338,-0.5826697233240137,-5.438558371700012,0.5826697233240137,0.10206939953323493,0.7,0.0,1.0,0.5946872039061615,-0.5706557551903599,1.052585459259193,0.0,0.7071067811865475,0.0,-0.009367842352380914,0.6598568904280598,0.08066714953753351,0.0,0.0,0.0,0.571492695164938,0.7083202394480836,0.0,138.56394222368527,37.18410710389024
1.0,9.0,-0.2305406928062439,0.012279336340725422,0.29865771532058716,0.6206086874008179,0.06654714792966843,0.12048251926898956,-1.0,-1.0,-1.0,-1.0,-1.0,-1.0,1.0,1.0,1.0,1.0,1.0,1.0,-0.01152703445404768,0.0006139668403193355,0.014932885766029358,0.031030435115098953,0.0033273573499172926,0.006024125963449478,-0.05,-0.05,-0.05,-0.05,-0.05,-0.05,0.05,0.05,0.05,0.05,0.05,0.05,0.8164070213450736,1.7782445723231906,-1.4450537080601698,2.7397462538370503,-0.1048556359267064,1.7323318848510858,0.7562885440652268,1.7778622736033691,-1.3872616169348138,2.8598001958298656,-0.09197855147467272,1.7556384048601026,-0.01728870574369545,0.007094107428618882,0.15178759577823192,0.3159299006103854,0.03389031257844785,0.06133294739214923,-1.0,-1.0,-0.03808014106813153,0.41598309035129627,0.11465283915697701,-0.0827151491722944,-6.28318530718,0.820304748437,-6.28318530718,0.523598775598,-6.28318530718,1.1344640138,6.28318530718,5.46288055874,6.28318530718,5.75958653158,6.28318530718,5.14872129338,-0.5726318467293477,-6.011190218429359,0.5726318467293477,0.09827401367389482,0.7,0.0,1.0,0.6031014553737635,-0.5620728491091279,1.0509118476616983,0.0,0.7071067811865475,0.0,-0.02344667707057344,0.6679066602251241,0.08076819618078039,0.0,0.0,0.0,0.5018938297332964,0.606767831090609,0.0,-16.703727703593962,-24.372578005793926
1.0,10.0,-0.6411987543106079,-0.8468557000160217,0.8387075662612915,-0.03538991138339043,-0.348956435918808,0.9509803652763367,-1.0,-1.0,-1.0,-1.0,-1.0,-1.0,1.0,1.0,1.0,1.0,1.0,1.0,-0.032059937715530396,-0.042342785745859146,0.041935380548238754,-0.001769495545886457,-0.0174478217959404,0.04754902049899101,-0.05,-0.05,-0.05,-0.05,-0.05,-0.05,0.05,0.05,0.05,0.05,0.05,0.05,0.7936198188854068,1.7690328762306367,-1.3976346539314597,2.737744622991698,-0.12459852231435527,1.785202073678818,0.6561073327674216,1.5665306435938948,-1.235376805318976,2.730898776107618,-0.19209474490640838,1.9700769873460409,-0.2510780550429633,-0.11658655356425114,0.42669068556655004,-0.018017251578403046,-0.17761809735120312,0.48651293070321855,-1.0,-1.0,-0.03627897390389178,0.4820500301246772,0.10868814760050087,-0.14145298047757593,-6.28318530718,0.820304748437,-6.28318530718,0.523598775598,-6.28318530718,1.1344640138,6.28318530718,5.46288055874,6.28318530718,5.75958653158,6.28318530718,5.14872129338,-0.5709465564346421,-6.582136774864001,0.5709465564346421,0.07535086598602726,0.7,0.0,1.0,0.6179094593420511,-0.5630476057305892,1.0471010309877886,0.0,0.7071067811865475,0.0,-0.024398760255198566,0.6724773252197299,0.054277027865877785,0.0,0.0,0.0,0.08426451473528274,0.7660767842032107,0.0,-100.2310355995233,38.23414874702442
1.0,11.0,0.03142689913511276,0.8305701613426208,-0.32322078943252563,0.7078314423561096,-0.8857669234275818,-0.3341812491416931,-1.0,-1.0,-1.0,-1.0,-1.0,-1.0,1.0,1.0,1.0,1.0,1.0,1.0,0.0015713450266048312,0.04152850806713104,-0.016161039471626282,0.03539157286286354,-0.04428834840655327,-0.016709063202142715,-0.05,-0.05,-0.05,-0.05,-0.05,-0.05,0.05,0.05,0.05,0.05,0.05,0.05,0.7945025289316857,1.7622539505319526,-1.415899871449062,2.7777942443251584,-0.17469074368798973,1.7704297771118174,0.8014765440184309,1.9766754165662919,-1.478439851289591,2.9147024873060157,-0.3460402643471216,1.7016567576681043,0.018352671280908454,-0.03919813960357864,-0.16455161391702033,0.3612327432055137,-0.4509750020866183,-0.18095887630753069,0.6876134235796362,1.0,0.02854439237442202,-0.38407250015845595,-0.10430421962130554,0.0815254619281412,-6.28318530718,0.820304748437,-6.28318530718,0.523598775598,-6.28318530718,1.1344640138,6.28318530718,5.46288055874,6.28318530718,5.75958653158,6.28318530718,5.14872129338,-0.5514936302380413,-7.133630405102042,0.5514936302380413,0.1179430563215311,0.7,0.0,1.0,0.626212620117174,-0.5441084759742495,1.0514452440575464,0.0,0.7071067811865475,0.0,-0.036433718758026465,0.6547603255458194,0.08964307030558324,0.0,0.0,0.0,0.9726463098300386,1.0565336033232289,0.0,213.21163082274143,69.70963658880437
1.0,12.0,-0.9812696576118469,-0.11962199956178665,-0.6017642021179199,-0.18789392709732056,-0.7592064142227173,-0.013642620295286179,-1.0,-1.0,-1.0,-1.0,-1.0,-1.0,1.0,1.0,1.0,1.0,1.0,1.0,-0.049063485115766525,-0.005981100257486105,-0.030088210478425026,-0.009394696913659573,-0.037960320711135864,-0.0006821310380473733,-0.05,-0.05,-0.05,-0.05,-0.05,-0.05,0.05,0.05,0.05,0.05,0.05,0.05,0.7714415251720902,1.7554887560671173,-1.4499392755085043,2.767168777283962,-0.2176122923883597,1.769658021904239,0.5491851033528531,1.732348449244522,-1.5663409238411872,2.7308207597568606,-0.3644923472436691,1.7670191219215805,-0.2565115442221782,-0.06089554426998767,-0.3055812444577483,-0.0956935141725505,-0.3879688256690278,-0.00684965094311238,-1.0,0.009994502634974053,0.04244197923666804,0.4104986663420569,0.04039559712567999,-0.08174614485174314,-6.28318530718,0.820304748437,-6.28318530718,0.523598775598,-6.28318530718,1.1344640138,6.28318530718,5.46288055874,6.28318530718,5.75958653158,6.28318530718,5.14872129338,-0.5399160500527385,-7.6735464551547805,0.5399160500527385,0.15356921438247612,0.7,0.0,1.0,0.6333468007270027,-0.5322950637520201,1.0610627319766992,0.0,0.7071067811865475,0.0,-0.03472722034204902,0.6284987318562472,0.11118779821658208,0.0,0.0,0.0,0.578879009265143,0.8410548661963515,0.0,-94.50415213557494,-51.71489691045057
1.0,13.0,0.8386167883872986,-0.34002578258514404,-0.23002022504806519,-0.34118542075157166,-0.8599405288696289,0.7283144593238831,-1.0,-1.0,-1.0,-1.0,-1.0,-1.0,1.0,1.0,1.0,1.0,1.0,1.0,0.04193083941936493,-0.017001289874315262,-0.011501011438667774,-0.017059272155165672,-0.042997028678655624,0.03641572222113609,-0.05,-0.05,-0.05,-0.05,-0.05,-0.05,0.05,0.05,0.05,0.05,0.05,0.05,0.7428171666814842,1.7434955483262449,-1.4629575247517832,2.7478729510764794,-0.2662499015072849,1.8108481075419713,0.9810957222689148,1.670482306695541,-1.5074443327018432,2.6818724165081336,-0.4325974357816378,1.9517366330099195,-0.24748812985037158,-0.13891184172437032,-0.11732155487886266,-0.17368787950285214,-0.4377532255901172,0.3707592775472318,1.0,-1.0,-0.019664109918188278,-0.3345513131587047,0.1445259315905052,0.04100942954497483,-6.28318530718,0.820304748437,-6.28318530718,0.523598775598,-6.28318530718,1.1344640138,6.28318530718,5.46288055874,6.28318530718,5.75958653158,6.28318530718,5.14872129338,-0.5391743847366962,-8.212720839891476,0.5391743847366962,0.17592883702804207,0.7,0.0,1.0,0.6429264461205098,-0.5318896593093195,1.0674167406774893,0.0,0.7071067811865475,0.0,-0.014847595178146196,0.6049102979630223,0.11762886717321466,0.0,0.0,0.0,0.03708326580211252,0.5751247368989153,0.0,-130.03097843112732,-63.82323103138469
1.0,14.0,-0.28403982520103455,0.7270150184631348,-0.4714810252189636,0.37848132848739624,-0.8187809586524963,0.5945581793785095,-1.0,-1.0,-1.0,-1.0,-1.0,-1.0,1.0,1.0,1.0,1.0,1.0,1.0,-0.014201991260051727,0.03635075315833092,-0.02357405237853527,0.018924066796898842,-0.04093904793262482,0.029727909713983536,-0.05,-0.05,-0.05,-0.05,-0.05,-0.05,0.05,0.05,0.05,0.05,0.05,0.05,0.7292872237685984,1.7354928697218117,-1.489615509962508,2.7684156181039596,-0.3125509804718189,1.844472489760904,0.6718072103812256,1.9252493141178995,-1.5808277866444596,2.8424932850609737,-0.470945141170409,1.959487656111889,-0.15126319312466552,-0.04825165474642762,-0.2400885049180911,0.19540491244901792,-0.4165684903584038,0.3026337478195663,0.16289204114350797,1.0,0.04930594600355808,-0.10489897000480156,-0.09705235540576092,-0.01902031267668248,-6.28318530718,0.820304748437,-6.28318530718,0.523598775598,-6.28318530718,1.1344640138,6.28318530718,5.46288055874,6.28318530718,5.75958653158,6.28318530718,5.14872129338,-0.5326816753190945,-8.745402515210571,0.5326816753190945,0.20979056013820646,0.7,0.0,1.0,0.6527424451221645,-0.5253605032213431,1.0742484503726693,0.0,0.7071067811865475,0.0,-0.003795416960057436,0.5801863433232152,0.13678958293042662,0.0,0.0,0.0,0.3246354708800858,0.6812781608507334,0.0,69.0125292187136,25.476821748436357
1.0,15.0,-0.11896082013845444,-0.5934079885482788,-0.2175220400094986,-0.49659591913223267,0.9999937415122986,0.02607470192015171,-1.0,-1.0,-1.0,-1.0,-1.0,-1.0,1.0,1.0,1.0,1.0,1.0,1.0,-0.005948041100054979,-0.02967040054500103,-0.01087610237300396,-0.024829795584082603,0.04999968782067299,0.0013037350727245212,-0.05,-0.05,-0.05,-0.05,-0.05,-0.05,0.05,0.05,0.05,0.05,0.05,0.05,0.703918428117162,1.7364155543124822,-1.5019310203678555,2.7403301756833596,-0.25712411675802516,1.8459477113028104,0.6995470182683236,1.5871408669968066,-1.5439960218275277,2.6442666401835466,-0.06255254136845395,1.8509911651245265,-0.2149790926560455,-0.021723951870915373,-0.11069737226229504,-0.25280411199519676,0.5118064041990528,0.013302400183763517,1.0,-1.0,-0.0663758262400015,-0.3643433600593333,0.08349901610567646,0.07561196793508873,-6.28318530718,0.820304748437,-6.28318530718,0.523598775598,-6.28318530718,1.1344640138,6.28318530718,5.46288055874,6.28318530718,5.75958653158,6.28318530718,5.14872129338,-0.5256640972189819,-9.271066612429554,0.5256640972189819,0.18360158967971973,0.7,0.0,1.0,0.6626054786295275,-0.520400815798816,1.0640888741705394,0.0,0.7071067811865475,0.0,-0.012642982558880618,0.5952516088045304,0.11528567952971107,0.0,0.0,0.0,0.35087890500563046,0.7501581798251284,0.0,6.298424190130714,16.5312045538548
1.0,16.0,-0.5234465003013611,0.047002363950014114,0.27333641052246094,0.04308481141924858,0.05598638579249382,-0.23517702519893646,-1.0,-1.0,-1.0,-1.0,-1.0,-1.0,1.0,1.0,1.0,1.0,1.0,1.0,-0.026172325015068054,0.0023501182440668344,0.013666820712387562,0.0021542406175285578,0.0027993193361908197,-0.011758851818740368,-0.05,-0.05,-0.05,-0.05,-0.05,-0.05,0.05,0.05,0.05,0.05,0.05,0.05,0.6903050187275839,1.7321184554526161,-1.4864541451039468,2.7426827652864243,-0.25395399749409725,1.832646792538849,0.5730568030418217,1.7481661455328164,-1.4335969168059177,2.7511013787710024,-0.24312752007707106,1.7871534522091086,-0.1661978276229929,-0.01514218303586551,0.13934112974920487,0.022156727378227725,0.02848704541804574,-0.11971931665721136,-1.0,1.0,0.045408446924450376,0.3678252030180397,-0.11330714930639148,-0.08314058185981213,-6.28318530718,0.820304748437,-6.28318530718,0.523598775598,-6.28318530718,1.1344640138,6.28318530718,5.46288055874,6.28318530718,5.75958653158,6.28318530718,5.14872129338,-0.5113238504633747,-9.782390462892929,0.5113238504633747,0.17616371828428556,0.7,0.0,1.0,0.6711488445759427,-0.5072062871772502,1.0579782125565906,0.0,0.7071067811865475,0.0,-0.033366778767581894,0.6023852549176062,0.11000733944898612,0.0,0.0,0.0,0.7170123377803594,0.8432450305217838,0.0,87.87202386593495,22.340844167197282
1.0,17.0,0.981587290763855,-0.12631545960903168,-0.6221689581871033,0.8789788484573364,0.14401467144489288,-0.9162842631340027,-1.0,-1.0,-1.0,-1.0,-1.0,-1.0,1.0,1.0,1.0,1.0,1.0,1.0,0.04907936602830887,-0.006315772887319326,-0.031108448281884193,0.043948944658041,0.007200733758509159,-0.045814212411642075,-0.05,-0.05,-0.05,-0.05,-0.05,-0.05,0.05,0.05,0.05,0.05,0.05,0.05,0.6995861431867747,1.7294297380751427,-1.5216585624247094,2.792393031073666,-0.24581290275739193,1.7808841463409615,0.9357018488691282,1.7005395910160195,-1.6419963865133678,2.9624274885766293,-0.21795032870155145,1.6035757304806386,0.095479191533412,-0.06320171070667707,-0.31692775292493003,0.44745719068367357,0.07332559837334729,-0.4666010943692706,1.0,-1.0,-0.03716312736183007,-0.4535761416139244,0.09530004340390666,0.12616101875588792,-6.28318530718,0.820304748437,-6.28318530718,0.523598775598,-6.28318530718,1.1344640138,6.28318530718,5.46288055874,6.28318530718,5.75958653158,6.28318530718,5.14872129338,-0.48615271439526103,-10.26854317728819,0.48615271439526103,0.20908805163421154,0.7,0.0,1.0,0.6748438488205148,-0.48254890457254396,1.05346199086784,0.0,0.7071067811865475,0.0,-0.0585512905388507,0.5983167842066305,0.14963119622890234,0.0,0.0,0.0,1.258556803405683,1.2669212994738666,0.0,129.97067175007768,101.68230454849987
1.0,18.0,0.5484728217124939,-0.10863067954778671,0.24425509572029114,0.7643159031867981,-0.05046769604086876,-0.7614941596984863,-1.0,-1.0,-1.0,-1.0,-1.0,-1.0,1.0,1.0,1.0,1.0,1.0,1.0,0.027423640713095665,-0.005431534256786108,0.012212755158543587,0.038215797394514084,-0.0025233847554773092,-0.038074709475040436,-0.05,-0.05,-0.05,-0.05,-0.05,-0.05,0.05,0.05,0.05,0.05,0.05,0.05,0.7127238062727854,1.7232566947221428,-1.5079331619482517,2.8356203074273165,-0.24845378254968953,1.73780368166008,0.836704346752253,1.7022720667912121,-1.4605947866319915,2.9834720180462364,-0.2584298265347785,1.5905105989657593,0.13717150421894364,-0.05522270508139637,0.1232938633540717,0.3891054701379513,-0.023149446575069406,-0.38781479646551226,1.0,0.1483148414647321,-0.0268219449101708,-0.46482724698972827,-0.0462998986560948,0.11291776003485905,-6.28318530718,0.820304748437,-6.28318530718,0.523598775598,-6.28318530718,1.1344640138,6.28318530718,5.46288055874,6.28318530718,5.75958653158,6.28318530718,5.14872129338,-0.46717391255121526,-10.735717089839406,0.46717391255121526,0.23418600477383106,0.7,0.0,1.0,0.6755693567001644,-0.4644315782900639,1.0442483595556604,0.0,0.7071067811865475,0.0,-0.07112086144836745,0.6067828989140085,0.1895583469698567,0.0,0.0,0.0,0.9489400922022884,1.0169253601740553,0.0,-74.30801068881473,-59.99902543195469
1.0,19.0,-0.8706827163696289,-0.5121644735336304,0.20466329157352448,-0.029595358297228813,-0.6577582359313965,-0.11563846468925476,-1.0,-1.0,-1.0,-1.0,-1.0,-1.0,1.0,1.0,1.0,1.0,1.0,1.0,-0.043534137308597565,-0.025608224794268608,0.010233164764940739,-0.0014797679614275694,-0.032887913286685944,-0.005781923420727253,-0.05,-0.05,-0.05,-0.05,-0.05,-0.05,0.05,0.05,0.05,0.05,0.05,0.05,0.702832312599718,1.708472589354826,-1.4963584772505871,2.833946368852316,-0.28567015992741285,1.7312653413379808,0.4950531197297976,1.5952155707507998,-1.456767338123548,2.8282214676201787,-0.41289334898311925,1.7088940645564437,-0.12661677746552205,-0.1712313377421141,0.10418720822905014,-0.015070726618359431,-0.33532367230741944,-0.058824926637064616,-1.0,-1.0,0.03593261133854795,0.4271806152519792,0.16210170655474482,-0.05899326204799302,-6.28318530718,0.820304748437,-6.28318530718,0.523598775598,-6.28318530718,1.1344640138,6.28318530718,5.46288055874,6.28318530718,5.75958653158,6.28318530718,5.14872129338,-0.4602571239556227,-11.19597421379503,0.4602571239556227,0.256342286589144,0.7,0.0,1.0,0.6787880552893037,-0.45803331520613044,1.0399018259578847,0.0,0.7071067811865475,0.0,-0.05913809803677156,0.6003710723794942,0.2172302414843442,0.0,0.0,0.0,0.3458394297796291,0.41889779605396027,0.0,-144.74415898143823,-143.52661538882282
1.0,20.0,-0.5044878125190735,-0.6025803685188293,-0.9551674127578735,0.38490867614746094,0.0778329148888588,-0.6663471460342407,-1.0,-1.0,-1.0,-1.0,-1.0,-1.0,1.0,1.0,1.0,1.0,1.0,1.0,-0.025224391371011734,-0.030129019170999527,-0.04775837063789368,0.019245434552431107,0.003891645697876811,-0.033317357301712036,-0.05,-0.05,-0.05,-0.05,-0.05,-0.05,0.05,0.05,0.05,0.05,0.05,0.05,0.696541505871018,1.6913558222368228,-1.5503822805347314,2.854861685664887,-0.2813193225518424,1.6935845942538947,0.5767103557446593,1.5578274934998284,-1.7351503304400555,2.9301735416144714,-0.2662119314380288,1.5646785548294206,-0.09833055287836678,-0.20361266278641998,-0.48623171027716905,0.19818311873037472,0.03890737879075067,-0.33915588204746805,-1.0,-1.0,0.04069376392842328,0.37344932171085826,0.1593379273763758,-0.025424513632390226,-6.28318530718,0.820304748437,-6.28318530718,0.523598775598,-6.28318530718,1.1344640138,6.28318530718,5.46288055874,6.28318530718,5.75958653158,6.28318530718,5.14872129338,-0.44128910268928273,-11.637263316484312,0.44128910268928273,0.28627376569911,0.7,0.0,1.0,0.6813617453617759,-0.4398135597538629,1.0308661671249988,0.0,0.7071067811865475,0.0,-0.08044245772448601,0.5851720321543286,0.23773821247208046,0.0,0.0,0.0,0.9484010633169976,1.0249713409089598,0.0,144.61479204896844,145.4576507651999
1.0,21.0,0.9336523413658142,-0.2758055627346039,-0.4086115062236786,-0.07798207551240921,0.5837824940681458,-0.7492063045501709,-1.0,-1.0,-1.0,-1.0,-1.0,-1.0,1.0,1.0,1.0,1.0,1.0,1.0,0.04668261855840683,-0.013790278695523739,-0.02043057605624199,-0.0038991037290543318,0.029189124703407288,-0.037460315972566605,-0.05,-0.05,-0.05,-0.05,-0.05,-0.05,0.05,0.05,0.05,0.05,0.05,0.05,0.6832352308441468,1.6757577026462471,-1.5735463380831984,2.850448974878486,-0.24814727153021418,1.65120457714993,0.9299545986630522,1.622404428759204,-1.6525351608159413,2.8353661670196155,-0.13537369903480595,1.5062830143910617,-0.10592994554157581,-0.14040335233432397,-0.21145233425050025,-0.0397659463414188,0.3068115731429664,-0.38200484513621735,1.0,0.6377460155390664,-0.0347919654834917,-0.406870547748886,-0.11899920266127545,0.08024239314683569,-6.28318530718,0.820304748437,-6.28318530718,0.523598775598,-6.28318530718,1.1344640138,6.28318530718,5.46288055874,6.28318530718,5.75958653158,6.28318530718,5.14872129338,-0.4245744761785535,-12.061837792662866,0.4245744761785535,0.2972004685644809,0.7,0.0,1.0,0.684818849171538,-0.4241114858181061,1.0127462182224751,0.0,0.7071067811865475,0.0,-0.09824185036129085,0.5906110632681346,0.2493697385537252,0.0,0.0,0.0,0.8357313255364623,1.2112382516102203,0.0,-27.040737067328457,44.70405856830251
1.0,22.0,-0.8700937628746033,0.32432669401168823,-0.8254749774932861,-0.769726574420929,-0.14966259896755219,-0.4902132451534271,-1.0,-1.0,-1.0,-1.0,-1.0,-1.0,1.0,1.0,1.0,1.0,1.0,1.0,-0.04350468888878822,0.0162163358181715,-0.041273750364780426,-0.03848632797598839,-0.007483129855245352,-0.024510663002729416,-0.05,-0.05,-0.05,-0.05,-0.05,-0.05,0.05,0.05,0.05,0.05,0.05,0.05,0.6506607942612828,1.6614202717005626,-1.6202101150868768,2.806917672080758,-0.2565261916900404,1.6234743936503317,0.4657117864002057,1.7568393817371046,-1.7799150899071006,2.658017334998544,-0.28556292080644097,1.5286512621362829,-0.3376787679277141,-0.1080744297978779,-0.4200110633589194,-0.3918417298821151,-0.07641470687875104,-0.24953455661591795,-1.0,1.0,0.04355506678730992,0.4350734139399345,-0.05702876063284984,-0.06739173075910367,-6.28318530718,0.820304748437,-6.28318530718,0.523598775598,-6.28318530718,1.1344640138,6.28318530718,5.46288055874,6.28318530718,5.75958653158,6.28318530718,5.14872129338,-0.41546030177575044,-12.477298094438616,0.41546030177575044,0.31094891201399666,0.7,0.0,1.0,0.687036778370157,-0.41514536992007534,1.0096715598792028,0.0,0.7071067811865475,0.0,-0.10698394106606467,0.5691415937423121,0.24772106190842902,0.0,0.0,0.0,0.4557087201401522,0.48673393182225544,0.0,-91.20542529511444,-173.88103674911156
1.0,23.0,-0.7204537987709045,-0.4643690586090088,0.8887103796005249,-0.7182351350784302,0.5493102073669434,-0.24461254477500916,-1.0,-1.0,-1.0,-1.0,-1.0,-1.0,1.0,1.0,1.0,1.0,1.0,1.0,-0.03602268919348717,-0.02321845293045044,0.044435519725084305,-0.03591175749897957,0.027465511113405228,-0.012230627238750458,-0.05,-0.05,-0.05,-0.05,-0.05,-0.05,0.05,0.05,0.05,0.05,0.05,0.05,0.6140832984148011,1.6499755683109425,-1.5699545652488591,2.766273879793183,-0.23274249789844512,1.6096428812715446,0.4705473482938469,1.5453280070483104,-1.3980325164614553,2.62735888458586,-0.11919863612301423,1.5623212574565795,-0.3777261845288269,-0.1408982982669361,0.45273710849535104,-0.36680604714294907,0.29759296636716986,-0.12449315746156477,-0.8397886085085161,-1.0,-0.032022307742584674,0.3369103564968104,0.11102387598894789,-0.061314075287980024,-6.28318530718,0.820304748437,-6.28318530718,0.523598775598,-6.28318530718,1.1344640138,6.28318530718,5.46288055874,6.28318530718,5.75958653158,6.28318530718,5.14872129338,-0.40085519235052686,-12.878153286789143,0.40085519235052686,0.289129817935179,0.7,0.0,1.0,0.6992105905787114,-0.400678936626516,0.988140328377738,0.0,0.7071067811865475,0.0,-0.1260045596526675,0.5950599742081769,0.22882799526340442,0.0,0.0,0.0,0.7302554712611792,1.432718854046231,0.0,65.89122026904649,227.03638133375415
1.0,24.0,-0.02858189307153225,0.041229333728551865,0.6055200695991516,0.4842650294303894,0.9763436317443848,-0.027404937893152237,-1.0,-1.0,-1.0,-1.0,-1.0,-1.0,1.0,1.0,1.0,1.0,1.0,1.0,-0.0014290947001427412,0.0020614666864275932,0.03027600422501564,0.02421325258910656,0.04881718382239342,-0.0013702468713745475,-0.05,-0.05,-0.05,-0.05,-0.05,-0.05,0.05,0.05,0.05,0.05,0.05,0.05,0.6050685425004836,1.6438129886255066,-1.5357003476144566,2.7936614169974385,-0.17751939578438947,1.6080926089829266,0.6069378249140874,1.6602829017430805,-1.418574544123781,2.887340142738716,0.01134342121352197,1.602791646914672,-0.07631773762262285,-0.03625736585376786,0.30822579865967314,0.24652368269803832,0.4972984732382933,-0.013970494151651995,1.0,1.0,-0.04318679566240894,-0.4354707530131895,-0.18865444306302975,0.05262202965440211,-6.28318530718,0.820304748437,-6.28318530718,0.523598775598,-6.28318530718,1.1344640138,6.28318530718,5.46288055874,6.28318530718,5.75958653158,6.28318530718,5.14872129338,-0.3841028316280631,-13.262256118417206,0.3841028316280631,0.29077776290159096,0.7,0.0,1.0,0.7112929940964142,-0.3822632264611642,0.9641910731166763,0.0,0.7071067811865475,0.0,-0.1308689792671961,0.6303772504847489,0.24748848526340253,0.0,0.0,0.0,0.8376180361231889,1.6268755969790172,0.0,25.76701556688232,46.597618303868686
1.0,25.0,0.37521010637283325,0.2369096875190735,-0.7894565463066101,0.4315994083881378,-0.6289100646972656,-0.45023852586746216,-1.0,-1.0,-1.0,-1.0,-1.0,-1.0,1.0,1.0,1.0,1.0,1.0,1.0,0.018760506063699722,0.011845484375953674,-0.039472829550504684,0.02157997153699398,-0.03144550323486328,-0.022511927410960197,-0.05,-0.05,-0.05,-0.05,-0.05,-0.05,0.05,0.05,0.05,0.05,0.05,0.05,0.601000651239182,1.634972553772174,-1.580347261923475,2.818070898617074,-0.20065686523486106,1.5826262090195824,0.6988710728189822,1.703040410505275,-1.73306449536698,2.9015612746824084,-0.3347469119587059,1.4955329719281256,-0.027136553792241405,-0.07839159721340941,-0.401887456430276,0.21971161392488567,-0.35249223395251006,-0.22921767331449627,1.0,1.0,0.013749103729248131,-0.4197081383802566,-0.11898510277952236,0.08227458823109354,-6.28318530718,0.820304748437,-6.28318530718,0.523598775598,-6.28318530718,1.1344640138,6.28318530718,5.46288055874,6.28318530718,5.75958653158,6.28318530718,5.14872129338,-0.36746199597348495,-13.629718114390691,0.36746199597348495,0.33257329043147893,0.7,0.0,1.0,0.7104736924527144,-0.365970554947249,0.9686284657240676,0.0,0.7071067811865475,0.0,-0.1303454143429964,0.6072991622989253,0.28842161623090984,0.0,0.0,0.0,0.8320417827289067,0.845300025724362,0.0,-1.338300814627713,-187.57813710111725
1.0,26.0,0.6238273978233337,0.06153930723667145,0.333243191242218,-0.1435595601797104,-0.31899258494377136,-0.43609240651130676,-1.0,-1.0,-1.0,-1.0,-1.0,-1.0,1.0,1.0,1.0,1.0,1.0,1.0,0.031191369518637657,0.00307696545496583,0.01666215993463993,-0.007177978288382292,-0.015949629247188568,-0.021804621443152428,-0.05,-0.05,-0.05,-0.05,-0.05,-0.05,0.05,0.05,0.05,0.05,0.05,0.05,0.5920329727677872,1.6339712056966296,-1.5615007709252784,2.8099519589428334,-0.2186893313748228,1.5579624607731086,0.7569574988323703,1.6503573810470031,-1.4970364622502754,2.7821810071751627,-0.2804050114708039,1.4736031018038203,-0.05868243038452528,0.021172187836463303,0.16964291756579708,-0.07308044291014407,-0.16182455462633982,-0.2220397943972517,1.0,1.0,-0.019039325421931975,-0.387360640360255,-0.1494009415370366,0.0698380301012089,-6.28318530718,0.820304748437,-6.28318530718,0.523598775598,-6.28318530718,1.1344640138,6.28318530718,5.46288055874,6.28318530718,5.75958653158,6.28318530718,5.14872129338,-0.35863987168205513,-13.988357986072746,0.35863987168205513,0.3355473094588663,0.7,0.0,1.0,0.7088280996784546,-0.35722603153319127,0.9694355662372802,0.0,0.7071067811865475,0.0,-0.15736833556249116,0.6013659971383983,0.27561478749992646,0.0,0.0,0.0,0.4411062145714906,0.44672720019081036,0.0,-93.82453635777988,-95.6574781280524
1.0,27.0,0.3880424201488495,-0.10428611934185028,0.6741282939910889,-0.014080914668738842,-0.35839271545410156,0.8866531848907471,-1.0,-1.0,-1.0,-1.0,-1.0,-1.0,1.0,1.0,1.0,1.0,1.0,1.0,0.019402122125029564,-0.0052143060602247715,0.0337064154446125,-0.0007040457567200065,-0.01791963540017605,0.04433266073465347,-0.05,-0.05,-0.05,-0.05,-0.05,-0.05,0.05,0.05,0.05,0.05,0.05,0.05,0.5895475926310607,1.6315719873806847,-1.5233806742101828,2.80915551424146,-0.23898823460168261,1.6034484461281837,0.689043583392935,1.6078996753955057,-1.3929686937022159,2.8064317301592334,-0.30828750837570307,1.779625764446376,0.0032560192612037814,-0.050645469761970485,0.3431894223893867,-0.007169409816877199,-0.1827924068244054,0.46365786447533064,1.0,-1.0,-0.020137319569287142,-0.3566791253459694,0.0966140864372164,0.011138151947974993,-6.28318530718,0.820304748437,-6.28318530718,0.523598775598,-6.28318530718,1.1344640138,6.28318530718,5.46288055874,6.28318530718,5.75958653158,6.28318530718,5.14872129338,-0.3668886038204748,-14.35524658989322,0.3668886038204748,0.30882370192626335,0.7,0.0,1.0,0.7164706418187268,-0.36513344923870367,0.9681640169232436,0.0,0.7071067811865475,0.0,-0.157148179949312,0.6068430568543391,0.24402090446259728,0.0,0.0,0.0,-0.4124366069209823,0.5535172598783927,0.0,-204.85027715819348,25.62961432501977
1.0,28.0,-0.8040037155151367,0.8353450298309326,-0.27656129002571106,-0.5925226807594299,0.4616483747959137,0.02271934412419796,-1.0,-1.0,-1.0,-1.0,-1.0,-1.0,1.0,1.0,1.0,1.0,1.0,1.0,-0.040200185030698776,0.04176725074648857,-0.013828064315021038,-0.029626134783029556,0.023082418367266655,0.001135967206209898,-0.05,-0.05,-0.05,-0.05,-0.05,-0.05,0.05,0.05,0.05,0.05,0.05,0.05,0.5756576019553852,1.6357968465755839,-1.5390021949461534,2.7756456421329214,-0.2128753447305083,1.6047329563303145,0.38854666747756683,1.8404082411131275,-1.592520995785288,2.6610248403263124,-0.12357614276534934,1.6091282821592332,-0.15478862804567514,0.06956878002261345,-0.14056176792135375,-0.30163239578814854,0.23499510760726083,0.01156664691820686,-1.0,1.0,0.018874634531765726,0.4033139037123782,-0.11146655179083945,-0.08054463451261075,-6.28318530718,0.820304748437,-6.28318530718,0.523598775598,-6.28318530718,1.1344640138,6.28318530718,5.46288055874,6.28318530718,5.75958653158,6.28318530718,5.14872129338,-0.37019741364221376,-14.725444003535433,0.37019741364221376,0.29630283614177894,0.7,0.0,1.0,0.7181240914525957,-0.3683403849038314,0.9677044395419497,0.0,0.7071067811865475,0.0,-0.15471705072429795,0.6104570429440591,0.23091516786596983,0.0,0.0,0.0,-0.16544049108694892,0.18186219660368272,0.0,59.27906780016801,-89.19721518593039
1.0,29.0,-0.9379131197929382,-0.2649368345737457,-0.5577942132949829,0.4918745458126068,0.21586769819259644,-0.26442962884902954,-1.0,-1.0,-1.0,-1.0,-1.0,-1.0,1.0,1.0,1.0,1.0,1.0,1.0,-0.04689565673470497,-0.013246841728687286,-0.027889711782336235,0.02459372766315937,0.010793385095894337,-0.013221481814980507,-0.05,-0.05,-0.05,-0.05,-0.05,-0.05,0.05,0.05,0.05,0.05,0.05,0.05,0.5768782713971679,1.6374514992285418,-1.5705544351040999,2.79830573904609,-0.20067666767790776,1.5897789424465965,0.3411793182818603,1.5695626379321475,-1.6784507538578346,2.8986142804487183,-0.1589084192510366,1.538625547255412,-0.0027149512165911167,-0.016119200437576472,-0.2839376809308808,0.26396902784153065,0.10963870809370022,-0.13459352665011295,-1.0,-1.0,0.01207304982939574,0.3588662471562746,0.15121769711104327,-0.036005645467098134,-6.28318530718,0.820304748437,-6.28318530718,0.523598775598,-6.28318530718,1.1344640138,6.28318530718,5.46288055874,6.28318530718,5.75958653158,6.28318530718,5.14872129338,-0.35937029275899857,-15.084814296294432,0.35937029275899857,0.31329167695812465,0.7,0.0,1.0,0.7180177246124014,-0.3576170452833799,0.9694644823154244,0.0,0.7071067811865475,0.0,-0.17245642187348484,0.5994704319313034,0.23529373003324677,0.0,0.0,0.0,0.5413560441607596,0.5433669963401775,0.0,169.63116845945004,86.76115193675874
1.0,30.0,-0.1436789631843567,0.5900092720985413,0.21948674321174622,-0.9260960817337036,-0.8795221447944641,-0.39619237184524536,-1.0,-1.0,-1.0,-1.0,-1.0,-1.0,1.0,1.0,1.0,1.0,1.0,1.0,-0.007183948066085577,0.029500463977456093,0.010974337346851826,-0.04630480334162712,-0.043976109474897385,-0.019809618592262268,-0.05,-0.05,-0.05,-0.05,-0.05,-0.05,0.05,0.05,0.05,0.05,0.05,0.05,0.5537748153720359,1.6322926436365444,-1.5581312810400207,2.7557123683539944,-0.2503895304079469,1.5673704525601317,0.54095853106674,1.7849538191158223,-1.5156827483698407,2.5667817223379545,-0.4205572150523947,1.4907308494852851,-0.2298866831025469,-0.017678362701794244,0.11198625355776513,-0.49718454447212346,-0.4478127151606454,-0.2016831659864388,1.0,1.0,0.01655038748666987,-0.3459501630087198,-0.1297386356237363,0.04265252773432701,-6.28318530718,0.820304748437,-6.28318530718,0.523598775598,-6.28318530718,1.1344640138,6.28318530718,5.46288055874,6.28318530718,5.75958653158,6.28318530718,5.14872129338,-0.35463349607145905,-15.439447792365891,0.35463349607145905,0.32693297181869224,0.7,0.0,1.0,0.7156614293786573,-0.3535136404194712,0.9765961070961318,0.0,0.7071067811865475,0.0,-0.1574103941904795,0.5883451217557237,0.25717325221360204,0.0,0.0,0.0,0.23683983437697564,0.4279314510482803,0.0,-73.08389034810814,-27.70453087005533
1.0,31.0,0.755121111869812,-0.3939085006713867,-0.49651896953582764,-0.29207441210746765,-0.3030407428741455,0.39553940296173096,-1.0,-1.0,-1.0,-1.0,-1.0,-1.0,1.0,1.0,1.0,1.0,1.0,1.0,0.0377560555934906,-0.019695425406098366,-0.02482594922184944,-0.014603720977902412,-0.015152037143707275,0.019776970148086548,-0.05,-0.05,-0.05,-0.05,-0.05,-0.05,0.05,0.05,0.05,0.05,0.05,0.05,0.5454231401654712,1.6306948790831652,-1.586225922617503,2.739193996768958,-0.26753632184927445,1.5897409449685036,0.7425550933394889,1.5338155166060525,-1.682261027149268,2.6826937634644823,-0.3261497161264833,1.6662553033005645,-0.04690566434209596,-0.04145117137311339,-0.25301485681461827,-0.1486864640075111,-0.15424193062704894,0.2013535745580547,1.0,-1.0,-0.01991624746394919,-0.3700144206673338,0.1175332810129502,0.040225029551237274,-6.28318530718,0.820304748437,-6.28318530718,0.523598775598,-6.28318530718,1.1344640138,6.28318530718,5.46288055874,6.28318530718,5.75958653158,6.28318530718,5.14872129338,-0.36142039114483954,-15.800868183510731,0.36142039114483954,0.3212059955530602,0.7,0.0,1.0,0.7175546338091754,-0.3606078773258308,0.9833118971218076,0.0,0.7071067811865475,0.0,-0.14736207982425858,0.5725233633180177,0.24402232137854712,0.0,0.0,0.0,-0.33934475366902417,0.49752953673187617,0.0,-138.28430113103997,16.70354056406301
1.0,32.0,0.7948009371757507,0.06614618003368378,0.2892730236053467,-0.8239384889602661,0.8790283799171448,-0.430616557598114,-1.0,-1.0,-1.0,-1.0,-1.0,-1.0,1.0,1.0,1.0,1.0,1.0,1.0,0.039740048348903656,0.003307309001684189,0.014463650994002819,-0.041196923702955246,0.04395141825079918,-0.02153082750737667,-0.05,-0.05,-0.05,-0.05,-0.05,-0.05,0.05,0.05,0.05,0.05,0.05,0.05,0.53823979751629,1.6344357607919593,-1.569826155651833,2.6925974408475413,-0.21791128127221307,1.5653952906590285,0.7441233819099895,1.6472314240915862,-1.513907667647489,2.5332093782541816,-0.047779230595278555,1.4820868074316202,-0.029562479385490826,0.03367279815691293,0.14616115896190082,-0.41945338086179024,0.4495425686896612,-0.21937605748967445,1.0,0.11190085018933511,-0.03481534486732255,-0.362639633813215,-0.07050629552896064,0.06418264995099957,-6.28318530718,0.820304748437,-6.28318530718,0.523598775598,-6.28318530718,1.1344640138,6.28318530718,5.46288055874,6.28318530718,5.75958653158,6.28318530718,5.14872129338,-0.3669305831134973,-16.16779876662423,0.3669305831134973,0.2981716659555961,0.7,0.0,1.0,0.7142340572914794,-0.36557257192303255,0.9718550342936212,0.0,0.7071067811865475,0.0,-0.15715680639054455,0.5954264803357867,0.22215486066818332,0.0,0.0,0.0,-0.27550959843288814,0.6460149509052349,0.0,15.320437256672648,35.63649940160609
1.0,33.0,-0.14478446543216705,-0.12601743638515472,-0.4817386269569397,-0.15379956364631653,0.8529371619224548,-0.5277721881866455,-1.0,-1.0,-1.0,-1.0,-1.0,-1.0,1.0,1.0,1.0,1.0,1.0,1.0,-0.007239223457872868,-0.006300871726125479,-0.024086931720376015,-0.007689978461712599,0.0426468588411808,-0.026388609781861305,-0.05,-0.05,-0.05,-0.05,-0.05,-0.05,0.05,0.05,0.05,0.05,0.05,0.05,0.543680636391189,1.6354457925979426,-1.5970830987029445,2.6838992841009186,-0.16967435761422298,1.5355472960897005,0.5020436802269257,1.602931402161332,-1.690260814253713,2.6541475485389783,-0.004676987066309063,1.433452241749722,0.026234801104883014,-0.025848935785961646,-0.24544038709221916,-0.07829510428161737,0.43420673956686034,-0.26867119563152236,-1.0,-1.0,-0.039243346063336265,0.371106497977113,0.13913769081766175,-0.036166474945193004,-6.28318530718,0.820304748437,-6.28318530718,0.523598775598,-6.28318530718,1.1344640138,6.28318530718,5.46288055874,6.28318530718,5.75958653158,6.28318530718,5.14872129338,-0.3678584503375765,-16.535657216961805,0.3678584503375765,0.30373617799149344,0.7,0.0,1.0,0.7090598211500871,-0.36583370100855717,0.9625371873470062,0.0,0.7071067811865475,0.0,-0.14891734804340198,0.6073049235561817,0.24274262844297914,0.0,0.0,0.0,-0.046393361203961314,0.5330646765795367,0.0,54.98789693494244,-27.108065838167555
1.0,34.0,0.1063540130853653,-0.9366029500961304,-0.017475714907050133,0.44352516531944275,0.18980556726455688,-0.8576475977897644,-1.0,-1.0,-1.0,-1.0,-1.0,-1.0,1.0,1.0,1.0,1.0,1.0,1.0,0.005317700561136007,-0.04683014750480652,-0.0008737857569940388,0.022176258265972137,0.00949027854949236,-0.04288237914443016,-0.05,-0.05,-0.05,-0.05,-0.05,-0.05,0.05,0.05,0.05,0.05,0.05,0.05,0.5544792299369311,1.6228098825936055,-1.598090766566163,2.7075895552650873,-0.15894319488759215,1.4870434916301465,0.5702691391968691,1.40129505507391,-1.6014520274879147,2.7947805754307793,-0.12222296486676118,1.3211354003675497,0.07117457190524505,-0.15716270668185872,-0.009132148457840356,0.22944901093999692,0.09663526551702452,-0.4366002401647284,-1.0,-1.0,-0.03602196592105175,0.3274519206804802,0.14121078156843922,-0.007705684256224395,-6.28318530718,0.820304748437,-6.28318530718,0.523598775598,-6.28318530718,1.1344640138,6.28318530718,5.46288055874,6.28318530718,5.75958653158,6.28318530718,5.14872129338,-0.3579450965815744,-16.89360231354338,0.3579450965815744,0.3310924331765894,0.7,0.0,1.0,0.7026430349440242,-0.35433681654740784,0.949372665761212,0.0,0.7071067811865475,0.0,-0.16012733132686263,0.6117256919833675,0.2730653282141639,0.0,0.0,0.0,0.4956676878001054,0.9309378686440044,0.0,130.094651760976,95.48956609547224
1.0,35.0,-0.7168240547180176,0.20101188123226166,-0.23158518970012665,0.9524442553520203,0.6003258228302002,0.0301696565002203,-1.0,-1.0,-1.0,-1.0,-1.0,-1.0,1.0,1.0,1.0,1.0,1.0,1.0,-0.035841204226017,0.010050593875348568,-0.011579259298741817,0.04762221500277519,0.03001629188656807,0.0015084828482940793,-0.05,-0.05,-0.05,-0.05,-0.05,-0.05,0.05,0.05,0.05,0.05,0.05,0.05,0.5669121756296482,1.6145302114187423,-1.6111780141337548,2.761454841348881,-0.12498736501709408,1.4887494568766444,0.3752732088068461,1.6730628519703483,-1.655987063059872,2.9457006302789632,-0.008861735454751801,1.4945859058716169,0.07436882560654601,-0.05877713478053763,-0.11761341215969168,0.4848582287898583,0.3055912896938814,0.015359076302559059,-1.0,1.0,0.0014691610301377962,0.3492141888320423,-0.12734576609487214,-0.0570577332003401,-6.28318530718,0.820304748437,-6.28318530718,0.523598775598,-6.28318530718,1.1344640138,6.28318530718,5.46288055874,6.28318530718,5.75958653158,6.28318530718,5.14872129338,-0.3492883846413933,-17.242890698184773,0.3492883846413933,0.34126945151560084,0.7,0.0,1.0,0.7063720388417738,-0.34334839349734403,0.9361748211973844,0.0,0.7071067811865475,0.0,-0.18291596171565358,0.6156639341086505,0.2730607465151867,0.0,0.0,0.0,0.43283559700905694,0.8786836921321012,0.0,-15.07970178985163,-12.541002362856775
1.0,36.0,0.7216470837593079,0.3907346725463867,0.9486257433891296,-0.8999915719032288,0.40213000774383545,0.535372257232666,-1.0,-1.0,-1.0,-1.0,-1.0,-1.0,1.0,1.0,1.0,1.0,1.0,1.0,0.03608235344290733,0.019536733627319336,0.04743128642439842,-0.04499958083033562,0.020106500014662743,0.02676861360669136,-0.05,-0.05,-0.05,-0.05,-0.05,-0.05,0.05,0.05,0.05,0.05,0.05,0.05,0.5472782434123327,1.612299820308367,-1.557519105294664,2.7312084663143086,-0.1022425391255347,1.5190271797157329,0.7473239428441849,1.712213879555339,-1.3740215820117627,2.5364569371972028,-0.024454864943780366,1.6225925249101012,-0.2476039239741996,0.0009011967999194622,0.4828882191655298,-0.5125052106060105,0.20495798959353925,0.27252739172496676,1.0,1.0,-0.01698488780393642,-0.3361334226184964,-0.18502623328036147,-0.004757143322882236,-6.28318530718,0.820304748437,-6.28318530718,0.523598775598,-6.28318530718,1.1344640138,6.28318530718,5.46288055874,6.28318530718,5.75958653158,6.28318530718,5.14872129338,-0.35537606935645427,-17.598266767541226,0.35537606935645427,0.31038417449563704,0.7,0.0,1.0,0.7162858724636125,-0.3463321607269747,0.9220195186246755,0.0,0.7071067811865475,0.0,-0.18601602610424314,0.6429801096342268,0.24001705195004117,0.0,0.0,0.0,-0.3043842357530496,0.8768687970373014,0.0,-176.93275986290558,-0.43557482275195625
1.0,37.0,0.34383368492126465,0.854557991027832,-0.5320855975151062,-0.6215342879295349,0.498881071805954,0.9880623817443848,-1.0,-1.0,-1.0,-1.0,-1.0,-1.0,1.0,1.0,1.0,1.0,1.0,1.0,0.017191683873534203,0.04272789880633354,-0.02660427987575531,-0.031076714396476746,0.02494405396282673,0.0494031198322773,-0.05,-0.05,-0.05,-0.05,-0.05,-0.05,0.05,0.05,0.05,0.05,0.05,0.05,0.531310452603866,1.6195308610776968,-1.5875924602023712,2.6960577691768277,-0.07402358458721013,1.5749065581549793,0.6332366627800037,1.8259393143400346,-1.6905405046734405,2.575824894331925,0.022477730688598943,1.7660427788771194,-0.11627522246138475,0.10035674568171689,-0.27064205300737926,-0.316401550519332,0.2539478040224627,0.5029900545319477,1.0,1.0,0.04160382492453364,-0.3387293554041462,-0.1419649303853921,-0.013252025781707883,-6.28318530718,0.820304748437,-6.28318530718,0.523598775598,-6.28318530718,1.1344640138,6.28318530718,5.46288055874,6.28318530718,5.75958653158,6.28318530718,5.14872129338,-0.36923235834233137,-17.967499125883556,0.36923235834233137,0.27887025487114986,0.7,0.0,1.0,0.7256960223159634,-0.36052392998758587,0.924536467148141,0.0,0.7071067811865475,0.0,-0.14441181448684617,0.6512489591794498,0.23193317731536203,0.0,0.0,0.0,-0.6928144492938548,0.8606571106716986,0.0,-93.22325124979325,-3.8908047277446656
1.0,38.0,0.7245782613754272,-0.22573961317539215,0.8234191536903381,0.3029138147830963,-0.6274240016937256,-0.7507749199867249,-1.0,-1.0,-1.0,-1.0,-1.0,-1.0,1.0,1.0,1.0,1.0,1.0,1.0,0.03622891381382942,-0.011286980472505093,0.041170958429574966,0.015145691111683846,-0.03137120231986046,-0.03753874823451042,-0.05,-0.05,-0.05,-0.05,-0.05,-0.05,0.05,0.05,0.05,0.05,0.05,0.05,0.546820651117187,1.6144951950736557,-1.5410413716059652,2.7131889786006758,-0.10951199080087257,1.5441380159503226,0.7124550216730131,1.5630959587151714,-1.3817376680544964,2.771786224735247,-0.23087959618651244,1.3872128169824272,0.18487657200979357,-0.07065617238629285,0.4192202725038652,0.15420397621191806,-0.3196390611777314,-0.4129473084642887,1.0,-1.0,-0.0348550536342926,-0.4044329126796012,0.12625854123194705,0.10341021869193978,-6.28318530718,0.820304748437,-6.28318530718,0.523598775598,-6.28318530718,1.1344640138,6.28318530718,5.46288055874,6.28318530718,5.75958653158,6.28318530718,5.14872129338,-0.36652940698708547,-18.33402853287064,0.36652940698708547,0.2912969907100031,0.7,0.0,1.0,0.7178027538131466,-0.3581864260939423,0.9243075148708815,0.0,0.7071067811865475,0.0,-0.1645424715549448,0.6507573652471598,0.23364743228199786,0.0,0.0,0.0,0.13514756776229486,0.411764590681438,0.0,198.71088409347593,-107.73420479766254
1.0,39.0,-0.10077238827943802,-0.16278572380542755,-0.7959192395210266,-0.0018226576503366232,0.4431806802749634,-0.9907755851745605,-1.0,-1.0,-1.0,-1.0,-1.0,-1.0,1.0,1.0,1.0,1.0,1.0,1.0,-0.005038619507104158,-0.008139286190271378,-0.03979596123099327,-9.113288251683116e-05,0.0221590343862772,-0.04953878000378609,-0.05,-0.05,-0.05,-0.05,-0.05,-0.05,0.05,0.05,0.05,0.05,0.05,0.05,0.5563446249235043,1.612859002095982,-1.586064145118419,2.7130859182300084,-0.08446034533581628,1.4881055796404885,0.5216275535816662,1.5737987641222988,-1.7400211777609316,2.7127333141880916,0.0012831811305134277,1.2964441159313922,0.06270079943066494,-0.051228985035740596,-0.40540998703550984,-0.00092853034498563,0.22564326280396257,-0.5043722729186745,-1.0,-1.0,-0.02357378980553638,0.3595052451503019,0.1437245999586181,-0.0047300091355615605,-6.28318530718,0.820304748437,-6.28318530718,0.523598775598,-6.28318530718,1.1344640138,6.28318530718,5.46288055874,6.28318530718,5.75958653158,6.28318530718,5.14872129338,-0.3617968912990754,-18.695825424169715,0.3617968912990754,0.3186519861049127,0.7,0.0,1.0,0.706532891267285,-0.35299366632246937,0.9209444282698181,0.0,0.7071067811865475,0.0,-0.16464886772613835,0.6454847260698473,0.2655729488706577,0.0,0.0,0.0,0.2366257844005043,0.6428158899192936,0.0,24.354771993170267,55.452311817085345
1.0,40.0,0.4320666790008545,-0.19475725293159485,0.31228724122047424,0.7745482325553894,0.9095996022224426,0.8514490723609924,-1.0,-1.0,-1.0,-1.0,-1.0,-1.0,1.0,1.0,1.0,1.0,1.0,1.0,0.021603334695100784,-0.009737863205373287,0.015614362433552742,0.03872741386294365,0.04547997936606407,0.04257245361804962,-0.05,-0.05,-0.05,-0.05,-0.05,-0.05,0.05,0.05,0.05,0.05,0.05,0.05,0.5785706194575743,1.605365850766721,-1.5684189357199818,2.7568999143418247,-0.034002686321733235,1.5293238208643138,0.6643612983990083,1.5641696860691157,-1.5079923329506553,2.9067229875447267,0.14293955149450407,1.7009678477307366,0.2257649445827212,-0.10588898968282194,0.1589216803336026,0.39477784776953595,0.4651390969355202,0.45173026723131293,0.6035077802897183,-1.0,-0.037057128181566,-0.2571317340063465,0.09378151998479986,-0.018461535291870907,-6.28318530718,0.820304748437,-6.28318530718,0.523598775598,-6.28318530718,1.1344640138,6.28318530718,5.46288055874,6.28318530718,5.75958653158,6.28318530718,5.14872129338,-0.3749533616120011,-19.070778785781716,0.3749533616120011,0.29778254959978423,0.7,0.0,1.0,0.7113846986853933,-0.36117896679426403,0.8999491830847405,0.0,0.7071067811865475,0.0,-0.18007308918813178,0.66776245827004,0.23271131994784128,0.0,0.0,0.0,-0.6578235156462858,1.1525401288214436,0.0,-214.66783201122962,122.333817336516
1.0,41.0,-0.9940829873085022,0.49536389112472534,-0.5698325634002686,-0.37011784315109253,0.5869789123535156,-0.11267594993114471,-1.0,-1.0,-1.0,-1.0,-1.0,-1.0,1.0,1.0,1.0,1.0,1.0,1.0,-0.04970414936542511,0.024768194183707237,-0.028491629287600517,-0.018505891785025597,0.02934894524514675,-0.005633797496557236,-0.05,-0.05,-0.05,-0.05,-0.05,-0.05,0.05,0.05,0.05,0.05,0.05,0.05,0.5769090231928207,1.5983224422485662,-1.600631261491053,2.7359678263513736,-0.0007928765500524477,1.5229510902255603,0.3300498726304487,1.7292068216852572,-1.7108770821579844,2.6643704554166967,0.11274203990400053,1.5011548333815277,-0.03776762004291786,-0.044093679647532344,-0.2898353404974007,-0.188413792861481,0.2987735966274337,-0.05735857064219141,-1.0,1.0,0.0034912280523759567,0.40721626036357633,-0.1288803468596738,-0.06016051967003469,-6.28318530718,0.820304748437,-6.28318530718,0.523598775598,-6.28318530718,1.1344640138,6.28318530718,5.46288055874,6.28318530718,5.75958653158,6.28318530718,5.14872129338,-0.3827484149328048,-19.45352720071452,0.3827484149328048,0.2895517028537952,0.7,0.0,1.0,0.7090440943821755,-0.36640461009402214,0.8897175662572301,0.0,0.7071067811865475,0.0,-0.18501799777790662,0.6682724442236532,0.21836262517253147,0.0,0.0,0.0,-0.38975266604018566,0.5862417575231705,0.0,64.33700390546404,-135.91160911158553
1.0,42.0,0.7447967529296875,-0.583636999130249,-0.25867363810539246,0.5077921748161316,-0.6758071184158325,-0.39143723249435425,-1.0,-1.0,-1.0,-1.0,-1.0,-1.0,1.0,1.0,1.0,1.0,1.0,1.0,0.037239838391542435,-0.02918185107409954,-0.012933681719005108,0.02538960985839367,-0.033790357410907745,-0.019571861252188683,-0.05,-0.05,-0.05,-0.05,-0.05,-0.05,0.05,0.05,0.05,0.05,0.05,0.05,0.5958303757196043,1.5797476171961258,-1.6152805354180937,2.7646858028973345,-0.03900879903839687,1.5008133696203294,0.7631082151505328,1.4524131868780685,-1.6652996700860785,2.862915875643342,-0.16974466360459117,1.4250917839646169,0.20435289186181926,-0.2111340889086476,-0.13193074891038234,0.25849973049921626,-0.34403936250634826,-0.19926733067292757,1.0,-1.0,0.018907772852204123,-0.4320184453280706,0.14091072947217675,0.07842389149578285,-6.28318530718,0.820304748437,-6.28318530718,0.523598775598,-6.28318530718,1.1344640138,6.28318530718,5.46288055874,6.28318530718,5.75958653158,6.28318530718,5.14872129338,-0.3814859222579876,-19.83501312297251,0.3814859222579876,0.30705199085399887,0.7,0.0,1.0,0.7019432999514298,-0.3644890659135439,0.8874146843687047,0.0,0.7071067811865475,0.0,-0.19386699576665528,0.6484240851337701,0.2306276440514388,0.0,0.0,0.0,0.0631246337408603,0.38533704742592484,0.0,108.69055194745103,-48.217130423338965
1.0,43.0,-0.8342226147651672,-0.09783487766981125,0.41012805700302124,0.5200129151344299,0.5578306317329407,-0.8105378150939941,-1.0,-1.0,-1.0,-1.0,-1.0,-1.0,1.0,1.0,1.0,1.0,1.0,1.0,-0.04171113297343254,-0.0048917438834905624,0.020506402477622032,0.026000646874308586,0.027891531586647034,-0.040526892989873886,-0.05,-0.05,-0.05,-0.05,-0.05,-0.05,0.05,0.05,0.05,0.05,0.05,0.05,0.6145769532253219,1.5714415057268258,-1.592081133746685,2.7940948839120203,-0.0074557083789799855,1.4549735745556867,0.3872747108524416,1.555288897778673,-1.5127485230299835,2.8946890372688774,0.10044885889483829,1.29817890467096,0.1423684818437077,-0.05491095681392654,0.20877002820184568,0.26471119915098545,0.2845480237621782,-0.4126315898597762,-1.0,1.0,-0.040397917372154445,0.341932417592146,-0.15017504120832045,0.0015529740755510309,-6.28318530718,0.820304748437,-6.28318530718,0.523598775598,-6.28318530718,1.1344640138,6.28318530718,5.46288055874,6.28318530718,5.75958653158,6.28318530718,5.14872129338,-0.3797524773658317,-20.21476560033834,0.3797524773658317,0.33163792030016487,0.7,0.0,1.0,0.6915827644519255,-0.3566198726819245,0.8697565332942083,0.0,0.7071067811865475,0.0,-0.2255309354014843,0.659547356533992,0.23652677626164537,0.0,0.0,0.0,0.08667224460779666,1.0966713241928878,0.0,5.651426608064725,170.72022642407114
